2025-10-10T22:19:25.335Z ip=::ffff:142.202.48.16 id=0001 raw="$GNGGA,221924.00,1931.28220,N,09901.43205,W,2,12,0.55,2237.0,M,-7.6,M,,0131*74" -> {"type":"GGA","lat":19.52137,"lon":-99.0238675,"altitude":2237,"satellites":12,"handled":true,"error":null}
2025-10-10T22:19:26.195Z ip=::ffff:142.202.48.16 id=0001 raw="$GNGGA,221925.00,1931.28219,N,09901.43204,W,2,12,0.55,2236.9,M,-7.6,M,,0131*76" -> {"type":"GGA","lat":19.521369833333335,"lon":-99.02386733333333,"altitude":2236.9,"satellites":12,"handled":true,"error":null}
2025-10-10T22:19:26.538Z ip=::ffff:142.202.48.16 id=0001 raw="$GNGGA,221926.00,1931.28219,N,09901.43204,W,2,12,0.56,2236.9,M,-7.6,M,,0131*76" -> {"type":"GGA","lat":19.521369833333335,"lon":-99.02386733333333,"altitude":2236.9,"satellites":12,"handled":true,"error":null}
2025-10-10T22:19:27.259Z ip=::ffff:142.202.48.16 id=0001 raw="$GNGGA,221927.00,1931.28218,N,09901.43203,W,2,12,0.55,2237.0,M,-7.6,M,,0131*7A" -> {"type":"GGA","lat":19.521369666666665,"lon":-99.02386716666666,"altitude":2237,"satellites":12,"handled":true,"error":null}
2025-10-10T22:19:28.245Z ip=::ffff:142.202.48.16 id=0001 raw="$GNGGA,221928.00,1931.28217,N,09901.43203,W,2,12,0.55,2237.0,M,-7.6,M,,0131*7A" -> {"type":"GGA","lat":19.5213695,"lon":-99.02386716666666,"altitude":2237,"satellites":12,"handled":true,"error":null}
2025-10-10T22:19:29.264Z ip=::ffff:142.202.48.16 id=0001 raw="$GNGGA,221929.00,1931.28217,N,09901.43203,W,2,12,0.55,2236.9,M,-7.6,M,,0131*73" -> {"type":"GGA","lat":19.5213695,"lon":-99.02386716666666,"altitude":2236.9,"satellites":12,"handled":true,"error":null}
2025-10-10T22:19:30.268Z ip=::ffff:142.202.48.16 id=0001 raw="$GNGGA,221930.00,1931.28216,N,09901.43202,W,2,12,0.55,2237.0,M,-7.6,M,,0131*73" -> {"type":"GGA","lat":19.521369333333332,"lon":-99.023867,"altitude":2237,"satellites":12,"handled":true,"error":null}
2025-10-10T22:19:31.421Z ip=::ffff:142.202.48.16 id=0001 raw="$GNGGA,221931.00,1931.28219,N,09901.43213,W,2,12,0.58,2236.8,M,-7.6,M,,0131*79" -> {"type":"GGA","lat":19.521369833333335,"lon":-99.02386883333334,"altitude":2236.8,"satellites":12,"handled":true,"error":null}
2025-10-10T22:19:32.442Z ip=::ffff:142.202.48.16 id=0001 raw="$GNGGA,221932.00,1931.28232,N,09901.43221,W,2,12,0.55,2236.6,M,-7.6,M,,0131*71" -> {"type":"GGA","lat":19.521372,"lon":-99.02387016666667,"altitude":2236.6,"satellites":12,"handled":true,"error":null}
2025-10-10T22:19:33.616Z ip=::ffff:142.202.48.16 id=0001 raw="$GNGGA,221933.00,1931.28237,N,09901.43235,W,2,12,0.55,2236.5,M,-7.6,M,,0131*73" -> {"type":"GGA","lat":19.521372833333334,"lon":-99.0238725,"altitude":2236.5,"satellites":12,"handled":true,"error":null}
2025-10-10T22:19:34.688Z ip=::ffff:142.202.48.16 id=0001 raw="$GNGGA,221934.00,1931.28240,N,09901.43239,W,2,12,0.57,2236.8,M,-7.6,M,,0131*77" -> {"type":"GGA","lat":19.521373333333333,"lon":-99.02387316666666,"altitude":2236.8,"satellites":12,"handled":true,"error":null}
2025-10-10T22:19:35.775Z ip=::ffff:142.202.48.16 id=0001 raw="$GNGGA,221935.00,1931.28244,N,09901.43242,W,2,12,0.55,2237.0,M,-7.6,M,,0131*75" -> {"type":"GGA","lat":19.521374,"lon":-99.02387366666666,"altitude":2237,"satellites":12,"handled":true,"error":null}
2025-10-10T22:19:36.861Z ip=::ffff:142.202.48.16 id=0001 raw="$GNGGA,221936.00,1931.28247,N,09901.43233,W,2,12,0.55,2236.9,M,-7.6,M,,0131*7B" -> {"type":"GGA","lat":19.5213745,"lon":-99.02387216666666,"altitude":2236.9,"satellites":12,"handled":true,"error":null}
2025-10-10T22:19:37.388Z ip=::ffff:142.202.48.16 id=0001 raw="$GNGGA,221937.00,1931.28249,N,09901.43232,W,2,12,0.55,2237.0,M,-7.6,M,,0131*7D" -> {"type":"GGA","lat":19.521374833333333,"lon":-99.023872,"altitude":2237,"satellites":12,"handled":true,"error":null}
2025-10-10T22:19:38.341Z ip=::ffff:142.202.48.16 id=0001 raw="$GNGGA,221938.00,1931.28252,N,09901.43236,W,2,12,0.55,2237.2,M,-7.6,M,,0131*7E" -> {"type":"GGA","lat":19.521375333333335,"lon":-99.02387266666666,"altitude":2237.2,"satellites":12,"handled":true,"error":null}
2025-10-10T22:19:39.266Z ip=::ffff:142.202.48.16 id=0001 raw="$GNGGA,221939.00,1931.28261,N,09901.43231,W,2,12,0.55,2236.9,M,-7.6,M,,0131*72" -> {"type":"GGA","lat":19.521376833333335,"lon":-99.02387183333333,"altitude":2236.9,"satellites":12,"handled":true,"error":null}
2025-10-10T22:19:41.280Z ip=::ffff:142.202.48.16 id=0001 raw="$GNGGA,221941.00,1931.28278,N,09901.43244,W,2,12,0.55,2237.2,M,-7.6,M,,0131*7D" -> {"type":"GGA","lat":19.521379666666668,"lon":-99.023874,"altitude":2237.2,"satellites":12,"handled":true,"error":null}
2025-10-10T22:19:42.533Z ip=::ffff:142.202.48.16 id=0001 raw="$GNGGA,221942.00,1931.28298,N,09901.43245,W,2,12,0.55,2237.3,M,-7.6,M,,0131*70" -> {"type":"GGA","lat":19.521383,"lon":-99.02387416666667,"altitude":2237.3,"satellites":12,"handled":true,"error":null}
2025-10-10T22:19:43.702Z ip=::ffff:142.202.48.16 id=0001 raw="$GNGGA,221943.00,1931.28304,N,09901.43243,W,2,12,0.55,2237.2,M,-7.6,M,,0131*72" -> {"type":"GGA","lat":19.521384,"lon":-99.02387383333334,"altitude":2237.2,"satellites":12,"handled":true,"error":null}
2025-10-10T22:19:44.829Z ip=::ffff:142.202.48.16 id=0001 raw="$GNGGA,221944.00,1931.28289,N,09901.43259,W,2,12,0.55,2237.3,M,-7.6,M,,0131*7B" -> {"type":"GGA","lat":19.5213815,"lon":-99.0238765,"altitude":2237.3,"satellites":12,"handled":true,"error":null}
2025-10-10T22:19:45.959Z ip=::ffff:142.202.48.16 id=0001 raw="$GNGGA,221945.00,1931.28283,N,09901.43265,W,2,12,0.55,2237.5,M,-7.6,M,,0131*79" -> {"type":"GGA","lat":19.5213805,"lon":-99.0238775,"altitude":2237.5,"satellites":12,"handled":true,"error":null}
2025-10-10T22:19:47.016Z ip=::ffff:142.202.48.16 id=0001 raw="$GNGGA,221946.00,1931.28288,N,09901.43264,W,2,12,0.55,2237.5,M,-7.6,M,,0131*70" -> {"type":"GGA","lat":19.521381333333334,"lon":-99.02387733333333,"altitude":2237.5,"satellites":12,"handled":true,"error":null}
2025-10-10T22:19:47.758Z ip=::ffff:142.202.48.16 id=0001 raw="$GNGGA,221947.00,1931.28288,N,09901.43252,W,2,12,0.55,2237.4,M,-7.6,M,,0131*75" -> {"type":"GGA","lat":19.521381333333334,"lon":-99.02387533333334,"altitude":2237.4,"satellites":12,"handled":true,"error":null}
2025-10-10T22:19:48.326Z ip=::ffff:142.202.48.16 id=0001 raw="$GNGGA,221948.00,1931.28290,N,09901.43245,W,2,12,0.55,2237.3,M,-7.6,M,,0131*72" -> {"type":"GGA","lat":19.521381666666667,"lon":-99.02387416666667,"altitude":2237.3,"satellites":12,"handled":true,"error":null}
2025-10-10T22:19:49.282Z ip=::ffff:142.202.48.16 id=0001 raw="$GNGGA,221949.00,1931.28291,N,09901.43246,W,2,12,0.56,2237.3,M,-7.6,M,,0131*72" -> {"type":"GGA","lat":19.521381833333333,"lon":-99.02387433333334,"altitude":2237.3,"satellites":12,"handled":true,"error":null}
2025-10-10T22:19:50.271Z ip=::ffff:142.202.48.16 id=0001 raw="$GNGGA,221950.00,1931.28293,N,09901.43246,W,2,12,0.56,2237.4,M,-7.6,M,,0131*7F" -> {"type":"GGA","lat":19.521382166666665,"lon":-99.02387433333334,"altitude":2237.4,"satellites":12,"handled":true,"error":null}
2025-10-10T22:19:51.270Z ip=::ffff:142.202.48.16 id=0001 raw="$GNGGA,221951.00,1931.28295,N,09901.43246,W,2,12,0.56,2237.5,M,-7.6,M,,0131*79" -> {"type":"GGA","lat":19.5213825,"lon":-99.02387433333334,"altitude":2237.5,"satellites":12,"handled":true,"error":null}
2025-10-10T22:19:52.445Z ip=::ffff:142.202.48.16 id=0001 raw="$GNGGA,221952.00,1931.28294,N,09901.43249,W,2,12,0.56,2237.5,M,-7.6,M,,0131*74" -> {"type":"GGA","lat":19.52138233333333,"lon":-99.02387483333334,"altitude":2237.5,"satellites":12,"handled":true,"error":null}
2025-10-10T22:19:53.529Z ip=::ffff:142.202.48.16 id=0001 raw="$GNGGA,221953.00,1931.28294,N,09901.43254,W,2,12,0.55,2237.6,M,-7.6,M,,0131*79" -> {"type":"GGA","lat":19.52138233333333,"lon":-99.02387566666667,"altitude":2237.6,"satellites":12,"handled":true,"error":null}
2025-10-10T22:19:54.546Z ip=::ffff:142.202.48.16 id=0001 raw="$GNGGA,221954.00,1931.28292,N,09901.43260,W,2,12,0.55,2237.7,M,-7.6,M,,0131*7E" -> {"type":"GGA","lat":19.521382,"lon":-99.02387666666667,"altitude":2237.7,"satellites":12,"handled":true,"error":null}
2025-10-10T22:19:55.812Z ip=::ffff:142.202.48.16 id=0001 raw="$GNGGA,221955.00,1931.28294,N,09901.43258,W,2,12,0.55,2237.7,M,-7.6,M,,0131*72" -> {"type":"GGA","lat":19.52138233333333,"lon":-99.02387633333333,"altitude":2237.7,"satellites":12,"handled":true,"error":null}
2025-10-10T22:19:56.987Z ip=::ffff:142.202.48.16 id=0001 raw="$GNGGA,221956.00,1931.28298,N,09901.43268,W,2,12,0.56,2238.0,M,-7.6,M,,0131*75" -> {"type":"GGA","lat":19.521383,"lon":-99.023878,"altitude":2238,"satellites":12,"handled":true,"error":null}
2025-10-10T22:19:57.973Z ip=::ffff:142.202.48.16 id=0001 raw="$GNGGA,221957.00,1931.28295,N,09901.43275,W,2,12,0.55,2237.8,M,-7.6,M,,0131*71" -> {"type":"GGA","lat":19.5213825,"lon":-99.02387916666666,"altitude":2237.8,"satellites":12,"handled":true,"error":null}
2025-10-10T22:19:59.307Z ip=::ffff:142.202.48.16 id=0001 raw="$GNGGA,221959.00,1931.28288,N,09901.43273,W,2,12,0.55,2238.1,M,-7.6,M,,0131*73" -> {"type":"GGA","lat":19.521381333333334,"lon":-99.02387883333333,"altitude":2238.1,"satellites":12,"handled":true,"error":null}
2025-10-10T22:20:00.269Z ip=::ffff:142.202.48.16 id=0001 raw="$GNGGA,222000.00,1931.28283,N,09901.43277,W,2,12,0.55,2238.1,M,-7.6,M,,0131*7A" -> {"type":"GGA","lat":19.5213805,"lon":-99.0238795,"altitude":2238.1,"satellites":12,"handled":true,"error":null}
2025-10-10T22:20:01.267Z ip=::ffff:142.202.48.16 id=0001 raw="$GNGGA,222001.00,1931.28285,N,09901.43275,W,2,12,0.55,2238.2,M,-7.6,M,,0131*7C" -> {"type":"GGA","lat":19.521380833333332,"lon":-99.02387916666666,"altitude":2238.2,"satellites":12,"handled":true,"error":null}
2025-10-10T22:20:02.269Z ip=::ffff:142.202.48.16 id=0001 raw="$GNGGA,222002.00,1931.28281,N,09901.43280,W,2,12,0.55,2238.0,M,-7.6,M,,0131*73" -> {"type":"GGA","lat":19.521380166666667,"lon":-99.02388,"altitude":2238,"satellites":12,"handled":true,"error":null}
2025-10-10T22:20:03.482Z ip=::ffff:142.202.48.16 id=0001 raw="$GNGGA,222003.00,1931.28289,N,09901.43293,W,2,12,0.55,2238.3,M,-7.6,M,,0131*7B" -> {"type":"GGA","lat":19.5213815,"lon":-99.02388216666667,"altitude":2238.3,"satellites":12,"handled":true,"error":null}
2025-10-10T22:20:04.567Z ip=::ffff:142.202.48.16 id=0001 raw="$GNGGA,222004.00,1931.28299,N,09901.43307,W,2,12,0.55,2238.9,M,-7.6,M,,0131*7B" -> {"type":"GGA","lat":19.521383166666666,"lon":-99.0238845,"altitude":2238.9,"satellites":12,"handled":true,"error":null}
2025-10-10T22:20:05.752Z ip=::ffff:142.202.48.16 id=0001 raw="$GNGGA,222005.00,1931.28324,N,09901.43323,W,2,12,0.55,2238.8,M,-7.6,M,,0131*7A" -> {"type":"GGA","lat":19.521387333333333,"lon":-99.02388716666667,"altitude":2238.8,"satellites":12,"handled":true,"error":null}
2025-10-10T22:20:07.005Z ip=::ffff:142.202.48.16 id=0001 raw="$GNGGA,222006.00,1931.28338,N,09901.43320,W,2,12,0.55,2238.7,M,-7.6,M,,0131*78" -> {"type":"GGA","lat":19.521389666666668,"lon":-99.02388666666667,"altitude":2238.7,"satellites":12,"handled":true,"error":null}
2025-10-10T22:20:08.168Z ip=::ffff:142.202.48.16 id=0001 raw="$GNGGA,222007.00,1931.28329,N,09901.43313,W,2,12,0.55,2238.7,M,-7.6,M,,0131*79" -> {"type":"GGA","lat":19.521388166666668,"lon":-99.0238855,"altitude":2238.7,"satellites":12,"handled":true,"error":null}
2025-10-10T22:20:09.012Z ip=::ffff:142.202.48.16 id=0001 raw="$GNGGA,222008.00,1931.28314,N,09901.43309,W,2,12,0.55,2238.6,M,-7.6,M,,0131*72" -> {"type":"GGA","lat":19.521385666666667,"lon":-99.02388483333333,"altitude":2238.6,"satellites":12,"handled":true,"error":null}
2025-10-10T22:20:09.498Z ip=::ffff:142.202.48.16 id=0001 raw="$GNGGA,222009.00,1931.28307,N,09901.43311,W,2,12,0.56,2238.6,M,-7.6,M,,0131*7B" -> {"type":"GGA","lat":19.5213845,"lon":-99.02388516666667,"altitude":2238.6,"satellites":12,"handled":true,"error":null}
2025-10-10T22:20:10.538Z ip=::ffff:142.202.48.16 id=0001 raw="$GNGGA,222010.00,1931.28306,N,09901.43313,W,2,12,0.56,2238.6,M,-7.6,M,,0131*70" -> {"type":"GGA","lat":19.521384333333334,"lon":-99.0238855,"altitude":2238.6,"satellites":12,"handled":true,"error":null}
2025-10-10T22:20:11.371Z ip=::ffff:142.202.48.16 id=0001 raw="$GNGGA,222011.00,1931.28309,N,09901.43314,W,2,12,0.56,2238.7,M,-7.6,M,,0131*78" -> {"type":"GGA","lat":19.521384833333332,"lon":-99.02388566666667,"altitude":2238.7,"satellites":12,"handled":true,"error":null}
2025-10-10T22:20:12.352Z ip=::ffff:142.202.48.16 id=0001 raw="$GNGGA,222012.00,1931.28341,N,09901.43322,W,2,12,0.55,2238.6,M,-7.6,M,,0131*70" -> {"type":"GGA","lat":19.521390166666666,"lon":-99.023887,"altitude":2238.6,"satellites":12,"handled":true,"error":null}
2025-10-10T22:20:13.371Z ip=::ffff:142.202.48.16 id=0001 raw="$GNGGA,222013.00,1931.28359,N,09901.43348,W,2,12,0.56,2238.6,M,-7.6,M,,0131*77" -> {"type":"GGA","lat":19.521393166666666,"lon":-99.02389133333334,"altitude":2238.6,"satellites":12,"handled":true,"error":null}
2025-10-10T22:20:14.353Z ip=::ffff:142.202.48.16 id=0001 raw="$GNGGA,222014.00,1931.28387,N,09901.43369,W,2,12,0.55,2238.3,M,-7.6,M,,0131*76" -> {"type":"GGA","lat":19.52139783333333,"lon":-99.02389483333333,"altitude":2238.3,"satellites":12,"handled":true,"error":null}
2025-10-10T22:20:15.438Z ip=::ffff:142.202.48.16 id=0001 raw="$GNGGA,222015.00,1931.28408,N,09901.43384,W,2,12,0.55,2237.8,M,-7.6,M,,0131*70" -> {"type":"GGA","lat":19.521401333333333,"lon":-99.02389733333334,"altitude":2237.8,"satellites":12,"handled":true,"error":null}
2025-10-10T22:20:16.375Z ip=::ffff:142.202.48.16 id=0001 raw="$GNGGA,222016.00,1931.28432,N,09901.43409,W,2,12,0.55,2237.7,M,-7.6,M,,0131*77" -> {"type":"GGA","lat":19.521405333333334,"lon":-99.0239015,"altitude":2237.7,"satellites":12,"handled":true,"error":null}
2025-10-10T22:20:17.511Z ip=::ffff:142.202.48.16 id=0001 raw="$GNGGA,222017.00,1931.28458,N,09901.43446,W,2,12,0.56,2237.4,M,-7.6,M,,0131*71" -> {"type":"GGA","lat":19.521409666666667,"lon":-99.02390766666667,"altitude":2237.4,"satellites":12,"handled":true,"error":null}
2025-10-10T22:20:18.361Z ip=::ffff:142.202.48.16 id=0001 raw="$GNGGA,222018.00,1931.28476,N,09901.43477,W,2,12,0.55,2237.0,M,-7.6,M,,0131*77" -> {"type":"GGA","lat":19.521412666666667,"lon":-99.02391283333333,"altitude":2237,"satellites":12,"handled":true,"error":null}
2025-10-10T22:20:19.345Z ip=::ffff:142.202.48.16 id=0001 raw="$GNGGA,222019.00,1931.28486,N,09901.43501,W,2,12,0.55,2236.9,M,-7.6,M,,0131*71" -> {"type":"GGA","lat":19.521414333333333,"lon":-99.02391683333333,"altitude":2236.9,"satellites":12,"handled":true,"error":null}
2025-10-10T22:20:20.431Z ip=::ffff:142.202.48.16 id=0001 raw="$GNGGA,222020.00,1931.28489,N,09901.43509,W,2,12,0.56,2237.0,M,-7.6,M,,0131*77" -> {"type":"GGA","lat":19.521414833333335,"lon":-99.02391816666666,"altitude":2237,"satellites":12,"handled":true,"error":null}
2025-10-10T22:20:21.342Z ip=::ffff:142.202.48.16 id=0001 raw="$GNGGA,222021.00,1931.28497,N,09901.43511,W,2,12,0.55,2237.0,M,-7.6,M,,0131*73" -> {"type":"GGA","lat":19.52141616666667,"lon":-99.0239185,"altitude":2237,"satellites":12,"handled":true,"error":null}
2025-10-10T22:20:22.322Z ip=::ffff:142.202.48.16 id=0001 raw="$GNGGA,222022.00,1931.28508,N,09901.43518,W,2,12,0.56,2237.1,M,-7.6,M,,0131*7C" -> {"type":"GGA","lat":19.521418,"lon":-99.02391966666667,"altitude":2237.1,"satellites":12,"handled":true,"error":null}
2025-10-10T22:20:23.346Z ip=::ffff:142.202.48.16 id=0001 raw="$GNGGA,222023.00,1931.28513,N,09901.43522,W,2,12,0.55,2237.3,M,-7.6,M,,0131*7F" -> {"type":"GGA","lat":19.521418833333332,"lon":-99.02392033333334,"altitude":2237.3,"satellites":12,"handled":true,"error":null}
2025-10-10T22:20:24.354Z ip=::ffff:142.202.48.16 id=0001 raw="$GNGGA,222024.00,1931.28503,N,09901.43487,W,2,12,0.55,2237.0,M,-7.6,M,,0131*74" -> {"type":"GGA","lat":19.521417166666666,"lon":-99.0239145,"altitude":2237,"satellites":12,"handled":true,"error":null}
2025-10-10T22:20:25.479Z ip=::ffff:142.202.48.16 id=0001 raw="$GNGGA,222025.00,1931.28485,N,09901.43430,W,2,12,0.56,2236.3,M,-7.6,M,,0131*77" -> {"type":"GGA","lat":19.521414166666666,"lon":-99.023905,"altitude":2236.3,"satellites":12,"handled":true,"error":null}
2025-10-10T22:20:26.354Z ip=::ffff:142.202.48.16 id=0001 raw="$GNGGA,222026.00,1931.28449,N,09901.43389,W,2,12,0.55,2236.1,M,-7.6,M,,0131*70" -> {"type":"GGA","lat":19.521408166666667,"lon":-99.02389816666667,"altitude":2236.1,"satellites":12,"handled":true,"error":null}
2025-10-10T22:20:27.330Z ip=::ffff:142.202.48.16 id=0001 raw="$GNGGA,222027.00,1931.28422,N,09901.43357,W,2,12,0.55,2235.8,M,-7.6,M,,0131*75" -> {"type":"GGA","lat":19.521403666666668,"lon":-99.02389283333333,"altitude":2235.8,"satellites":12,"handled":true,"error":null}
2025-10-10T22:20:28.341Z ip=::ffff:142.202.48.16 id=0001 raw="$GNGGA,222028.00,1931.28399,N,09901.43315,W,2,12,0.56,2235.6,M,-7.6,M,,0131*76" -> {"type":"GGA","lat":19.521399833333334,"lon":-99.02388583333334,"altitude":2235.6,"satellites":12,"handled":true,"error":null}
2025-10-10T22:20:29.301Z ip=::ffff:142.202.48.16 id=0001 raw="$GNGGA,222029.00,1931.28376,N,09901.43292,W,2,12,0.55,2235.5,M,-7.6,M,,0131*78" -> {"type":"GGA","lat":19.521396,"lon":-99.023882,"altitude":2235.5,"satellites":12,"handled":true,"error":null}
2025-10-10T22:20:30.370Z ip=::ffff:142.202.48.16 id=0001 raw="$GNGGA,222030.00,1931.28362,N,09901.43285,W,2,12,0.55,2235.4,M,-7.6,M,,0131*72" -> {"type":"GGA","lat":19.52139366666667,"lon":-99.02388083333334,"altitude":2235.4,"satellites":12,"handled":true,"error":null}
2025-10-10T22:20:31.341Z ip=::ffff:142.202.48.16 id=0001 raw="$GNGGA,222031.00,1931.28353,N,09901.43285,W,2,12,0.55,2235.5,M,-7.6,M,,0131*70" -> {"type":"GGA","lat":19.521392166666665,"lon":-99.02388083333334,"altitude":2235.5,"satellites":12,"handled":true,"error":null}
2025-10-10T22:20:32.322Z ip=::ffff:142.202.48.16 id=0001 raw="$GNGGA,222032.00,1931.28346,N,09901.43283,W,2,12,0.55,2235.6,M,-7.6,M,,0131*72" -> {"type":"GGA","lat":19.521391,"lon":-99.0238805,"altitude":2235.6,"satellites":12,"handled":true,"error":null}
2025-10-10T22:20:33.359Z ip=::ffff:142.202.48.16 id=0001 raw="$GNGGA,222033.00,1931.28347,N,09901.43287,W,2,12,0.57,2235.6,M,-7.6,M,,0131*74" -> {"type":"GGA","lat":19.521391166666668,"lon":-99.02388116666667,"altitude":2235.6,"satellites":12,"handled":true,"error":null}
2025-10-10T22:20:34.357Z ip=::ffff:142.202.48.16 id=0001 raw="$GNGGA,222034.00,1931.28352,N,09901.43270,W,2,12,0.55,2235.7,M,-7.6,M,,0131*7C" -> {"type":"GGA","lat":19.521392,"lon":-99.02387833333333,"altitude":2235.7,"satellites":12,"handled":true,"error":null}
2025-10-10T22:20:35.315Z ip=::ffff:142.202.48.16 id=0001 raw="$GNGGA,222035.00,1931.28358,N,09901.43249,W,2,12,0.55,2235.4,M,-7.6,M,,0131*7E" -> {"type":"GGA","lat":19.521393,"lon":-99.02387483333334,"altitude":2235.4,"satellites":12,"handled":true,"error":null}
2025-10-10T22:20:36.403Z ip=::ffff:142.202.48.16 id=0001 raw="$GNGGA,222036.00,1931.28354,N,09901.43227,W,2,12,0.55,2235.3,M,-7.6,M,,0131*7E" -> {"type":"GGA","lat":19.521392333333335,"lon":-99.02387116666667,"altitude":2235.3,"satellites":12,"handled":true,"error":null}
2025-10-10T22:20:37.324Z ip=::ffff:142.202.48.16 id=0001 raw="$GNGGA,222037.00,1931.28353,N,09901.43210,W,2,12,0.55,2235.3,M,-7.6,M,,0131*7C" -> {"type":"GGA","lat":19.521392166666665,"lon":-99.02386833333334,"altitude":2235.3,"satellites":12,"handled":true,"error":null}
2025-10-10T22:20:38.418Z ip=::ffff:142.202.48.16 id=0001 raw="$GNGGA,222038.00,1931.28346,N,09901.43195,W,2,12,0.55,2235.5,M,-7.6,M,,0131*7F" -> {"type":"GGA","lat":19.521391,"lon":-99.02386583333333,"altitude":2235.5,"satellites":12,"handled":true,"error":null}
2025-10-10T22:20:39.319Z ip=::ffff:142.202.48.16 id=0001 raw="$GNGGA,222039.00,1931.28364,N,09901.43197,W,2,12,0.55,2235.5,M,-7.6,M,,0131*7C" -> {"type":"GGA","lat":19.521394,"lon":-99.02386616666666,"altitude":2235.5,"satellites":12,"handled":true,"error":null}
2025-10-10T22:20:40.351Z ip=::ffff:142.202.48.16 id=0001 raw="$GNGGA,222040.00,1931.28375,N,09901.43220,W,2,12,0.55,2235.5,M,-7.6,M,,0131*7D" -> {"type":"GGA","lat":19.521395833333333,"lon":-99.02387,"altitude":2235.5,"satellites":12,"handled":true,"error":null}
2025-10-10T22:20:41.397Z ip=::ffff:142.202.48.16 id=0001 raw="$GNGGA,222041.00,1931.28381,N,09901.43246,W,2,12,0.55,2235.5,M,-7.6,M,,0131*77" -> {"type":"GGA","lat":19.521396833333334,"lon":-99.02387433333334,"altitude":2235.5,"satellites":12,"handled":true,"error":null}
2025-10-10T22:20:43.325Z ip=::ffff:142.202.48.16 id=0001 raw="$GNGGA,222043.00,1931.28418,N,09901.43315,W,2,12,0.55,2235.1,M,-7.6,M,,0131*71" -> {"type":"GGA","lat":19.521403,"lon":-99.02388583333334,"altitude":2235.1,"satellites":12,"handled":true,"error":null}
2025-10-10T22:20:44.343Z ip=::ffff:142.202.48.16 id=0001 raw="$GNGGA,222044.00,1931.28438,N,09901.43350,W,2,12,0.55,2234.9,M,-7.6,M,,0131*7C" -> {"type":"GGA","lat":19.521406333333335,"lon":-99.02389166666667,"altitude":2234.9,"satellites":12,"handled":true,"error":null}
2025-10-10T22:20:45.338Z ip=::ffff:142.202.48.16 id=0001 raw="$GNGGA,222045.00,1931.28456,N,09901.43376,W,2,12,0.55,2235.0,M,-7.6,M,,0131*79" -> {"type":"GGA","lat":19.521409333333335,"lon":-99.023896,"altitude":2235,"satellites":12,"handled":true,"error":null}
2025-10-10T22:20:46.344Z ip=::ffff:142.202.48.16 id=0001 raw="$GNGGA,222046.00,1931.28467,N,09901.43424,W,2,12,0.57,2235.0,M,-7.6,M,,0131*7A" -> {"type":"GGA","lat":19.521411166666667,"lon":-99.023904,"altitude":2235,"satellites":12,"handled":true,"error":null}
2025-10-10T22:20:47.411Z ip=::ffff:142.202.48.16 id=0001 raw="$GNGGA,222047.00,1931.28478,N,09901.43468,W,2,12,0.56,2234.8,M,-7.6,M,,0131*75" -> {"type":"GGA","lat":19.521413,"lon":-99.02391133333333,"altitude":2234.8,"satellites":12,"handled":true,"error":null}
2025-10-10T22:20:48.364Z ip=::ffff:142.202.48.16 id=0001 raw="$GNGGA,222048.00,1931.28486,N,09901.43499,W,2,12,0.55,2234.9,M,-7.6,M,,0131*77" -> {"type":"GGA","lat":19.521414333333333,"lon":-99.0239165,"altitude":2234.9,"satellites":12,"handled":true,"error":null}
2025-10-10T22:20:49.360Z ip=::ffff:142.202.48.16 id=0001 raw="$GNGGA,222049.00,1931.28490,N,09901.43514,W,2,12,0.55,2235.0,M,-7.6,M,,0131*7D" -> {"type":"GGA","lat":19.521415,"lon":-99.023919,"altitude":2235,"satellites":12,"handled":true,"error":null}
2025-10-10T22:20:50.337Z ip=::ffff:142.202.48.16 id=0001 raw="$GNGGA,222050.00,1931.28495,N,09901.43523,W,2,12,0.56,2235.2,M,-7.6,M,,0131*75" -> {"type":"GGA","lat":19.521415833333332,"lon":-99.0239205,"altitude":2235.2,"satellites":12,"handled":true,"error":null}
2025-10-10T22:20:51.359Z ip=::ffff:142.202.48.16 id=0001 raw="$GNGGA,222051.00,1931.28499,N,09901.43529,W,2,12,0.55,2235.3,M,-7.6,M,,0131*70" -> {"type":"GGA","lat":19.5214165,"lon":-99.0239215,"altitude":2235.3,"satellites":12,"handled":true,"error":null}
2025-10-10T22:20:52.367Z ip=::ffff:142.202.48.16 id=0001 raw="$GNGGA,222052.00,1931.28501,N,09901.43537,W,2,12,0.55,2235.5,M,-7.6,M,,0131*7A" -> {"type":"GGA","lat":19.521416833333333,"lon":-99.02392283333333,"altitude":2235.5,"satellites":12,"handled":true,"error":null}
2025-10-10T22:20:53.385Z ip=::ffff:142.202.48.16 id=0001 raw="$GNGGA,222053.00,1931.28503,N,09901.43532,W,2,12,0.55,2235.7,M,-7.6,M,,0131*7E" -> {"type":"GGA","lat":19.521417166666666,"lon":-99.023922,"altitude":2235.7,"satellites":12,"handled":true,"error":null}
2025-10-10T22:20:54.350Z ip=::ffff:142.202.48.16 id=0001 raw="$GNGGA,222054.00,1931.28497,N,09901.43506,W,2,12,0.56,2235.8,M,-7.6,M,,0131*7E" -> {"type":"GGA","lat":19.52141616666667,"lon":-99.02391766666666,"altitude":2235.8,"satellites":12,"handled":true,"error":null}
2025-10-10T22:20:55.359Z ip=::ffff:142.202.48.16 id=0001 raw="$GNGGA,222055.00,1931.28487,N,09901.43482,W,2,12,0.56,2235.8,M,-7.6,M,,0131*73" -> {"type":"GGA","lat":19.5214145,"lon":-99.02391366666667,"altitude":2235.8,"satellites":12,"handled":true,"error":null}
2025-10-10T22:20:56.372Z ip=::ffff:142.202.48.16 id=0001 raw="$GNGGA,222056.00,1931.28481,N,09901.43452,W,2,12,0.56,2235.8,M,-7.6,M,,0131*7B" -> {"type":"GGA","lat":19.5214135,"lon":-99.02390866666667,"altitude":2235.8,"satellites":12,"handled":true,"error":null}
2025-10-10T22:20:57.336Z ip=::ffff:142.202.48.16 id=0001 raw="$GNGGA,222057.00,1931.28476,N,09901.43426,W,2,12,0.56,2235.4,M,-7.6,M,,0131*7D" -> {"type":"GGA","lat":19.521412666666667,"lon":-99.02390433333333,"altitude":2235.4,"satellites":12,"handled":true,"error":null}
2025-10-10T22:20:58.412Z ip=::ffff:142.202.48.16 id=0001 raw="$GNGGA,222058.00,1931.28467,N,09901.43406,W,2,12,0.56,2235.4,M,-7.6,M,,0131*70" -> {"type":"GGA","lat":19.521411166666667,"lon":-99.023901,"altitude":2235.4,"satellites":12,"handled":true,"error":null}
2025-10-10T22:20:59.372Z ip=::ffff:142.202.48.16 id=0001 raw="$GNGGA,222059.00,1931.28450,N,09901.43377,W,2,12,0.57,2236.2,M,-7.6,M,,0131*70" -> {"type":"GGA","lat":19.521408333333333,"lon":-99.02389616666666,"altitude":2236.2,"satellites":12,"handled":true,"error":null}
2025-10-10T22:21:00.351Z ip=::ffff:142.202.48.16 id=0001 raw="$GNGGA,222100.00,1931.28429,N,09901.43355,W,2,12,0.55,2236.1,M,-7.6,M,,0131*72" -> {"type":"GGA","lat":19.52140483333333,"lon":-99.0238925,"altitude":2236.1,"satellites":12,"handled":true,"error":null}
2025-10-10T22:21:01.352Z ip=::ffff:142.202.48.16 id=0001 raw="$GNGGA,222101.00,1931.28394,N,09901.43356,W,2,12,0.55,2236.0,M,-7.6,M,,0131*70" -> {"type":"GGA","lat":19.521399,"lon":-99.02389266666667,"altitude":2236,"satellites":12,"handled":true,"error":null}
2025-10-10T22:21:02.378Z ip=::ffff:142.202.48.16 id=0001 raw="$GNGGA,222102.00,1931.28374,N,09901.43355,W,2,12,0.55,2236.1,M,-7.6,M,,0131*7F" -> {"type":"GGA","lat":19.521395666666667,"lon":-99.0238925,"altitude":2236.1,"satellites":12,"handled":true,"error":null}
2025-10-10T22:21:03.343Z ip=::ffff:142.202.48.16 id=0001 raw="$GNGGA,222103.00,1931.28362,N,09901.43357,W,2,12,0.56,2236.2,M,-7.6,M,,0131*7B" -> {"type":"GGA","lat":19.52139366666667,"lon":-99.02389283333333,"altitude":2236.2,"satellites":12,"handled":true,"error":null}
2025-10-10T22:21:04.449Z ip=::ffff:142.202.48.16 id=0001 raw="$GNGGA,222104.00,1931.28338,N,09901.43367,W,2,12,0.55,2236.2,M,-7.6,M,,0131*73" -> {"type":"GGA","lat":19.521389666666668,"lon":-99.0238945,"altitude":2236.2,"satellites":12,"handled":true,"error":null}
2025-10-10T22:21:05.384Z ip=::ffff:142.202.48.16 id=0001 raw="$GNGGA,222105.00,1931.28319,N,09901.43386,W,2,12,0.56,2236.2,M,-7.6,M,,0131*7D" -> {"type":"GGA","lat":19.5213865,"lon":-99.02389766666667,"altitude":2236.2,"satellites":12,"handled":true,"error":null}
2025-10-10T22:21:06.355Z ip=::ffff:142.202.48.16 id=0001 raw="$GNGGA,222106.00,1931.28321,N,09901.43412,W,2,12,0.55,2236.3,M,-7.6,M,,0131*7D" -> {"type":"GGA","lat":19.521386833333334,"lon":-99.023902,"altitude":2236.3,"satellites":12,"handled":true,"error":null}
2025-10-10T22:21:07.298Z ip=::ffff:142.202.48.16 id=0001 raw="$GNGGA,222107.00,1931.28327,N,09901.43441,W,2,12,0.56,2236.4,M,-7.6,M,,0131*78" -> {"type":"GGA","lat":19.521387833333332,"lon":-99.02390683333333,"altitude":2236.4,"satellites":12,"handled":true,"error":null}
2025-10-10T22:21:08.345Z ip=::ffff:142.202.48.16 id=0001 raw="$GNGGA,222108.00,1931.28333,N,09901.43461,W,2,12,0.55,2236.1,M,-7.6,M,,0131*76" -> {"type":"GGA","lat":19.521388833333333,"lon":-99.02391016666667,"altitude":2236.1,"satellites":12,"handled":true,"error":null}
2025-10-10T22:21:09.382Z ip=::ffff:142.202.48.16 id=0001 raw="$GNGGA,222109.00,1931.28342,N,09901.43478,W,2,12,0.55,2235.9,M,-7.6,M,,0131*72" -> {"type":"GGA","lat":19.521390333333333,"lon":-99.023913,"altitude":2235.9,"satellites":12,"handled":true,"error":null}
2025-10-10T22:21:10.347Z ip=::ffff:142.202.48.16 id=0001 raw="$GNGGA,222110.00,1931.28349,N,09901.43498,W,2,12,0.55,2235.6,M,-7.6,M,,0131*70" -> {"type":"GGA","lat":19.5213915,"lon":-99.02391633333333,"altitude":2235.6,"satellites":12,"handled":true,"error":null}
2025-10-10T22:21:11.325Z ip=::ffff:142.202.48.16 id=0001 raw="$GNGGA,222111.00,1931.28355,N,09901.43519,W,2,12,0.55,2235.6,M,-7.6,M,,0131*74" -> {"type":"GGA","lat":19.5213925,"lon":-99.02391983333334,"altitude":2235.6,"satellites":12,"handled":true,"error":null}
2025-10-10T22:21:12.350Z ip=::ffff:142.202.48.16 id=0001 raw="$GNGGA,222112.00,1931.28361,N,09901.43538,W,2,12,0.55,2235.4,M,-7.6,M,,0131*71" -> {"type":"GGA","lat":19.5213935,"lon":-99.023923,"altitude":2235.4,"satellites":12,"handled":true,"error":null}
2025-10-10T22:21:13.312Z ip=::ffff:142.202.48.16 id=0001 raw="$GNGGA,222113.00,1931.28371,N,09901.43572,W,2,12,0.55,2235.4,M,-7.6,M,,0131*7F" -> {"type":"GGA","lat":19.521395166666668,"lon":-99.02392866666666,"altitude":2235.4,"satellites":12,"handled":true,"error":null}
2025-10-10T22:21:14.318Z ip=::ffff:142.202.48.16 id=0001 raw="$GNGGA,222114.00,1931.28381,N,09901.43618,W,2,12,0.55,2235.4,M,-7.6,M,,0131*78" -> {"type":"GGA","lat":19.521396833333334,"lon":-99.02393633333334,"altitude":2235.4,"satellites":12,"handled":true,"error":null}
2025-10-10T22:21:15.366Z ip=::ffff:142.202.48.16 id=0001 raw="$GNGGA,222115.00,1931.28390,N,09901.43663,W,2,12,0.55,2235.5,M,-7.6,M,,0131*74" -> {"type":"GGA","lat":19.521398333333334,"lon":-99.02394383333333,"altitude":2235.5,"satellites":12,"handled":true,"error":null}
2025-10-10T22:21:16.319Z ip=::ffff:142.202.48.16 id=0001 raw="$GNGGA,222116.00,1931.28408,N,09901.43692,W,2,12,0.55,2235.6,M,-7.6,M,,0131*7C" -> {"type":"GGA","lat":19.521401333333333,"lon":-99.02394866666667,"altitude":2235.6,"satellites":12,"handled":true,"error":null}
2025-10-10T22:21:17.343Z ip=::ffff:142.202.48.16 id=0001 raw="$GNGGA,222117.00,1931.28435,N,09901.43686,W,2,12,0.55,2235.2,M,-7.6,M,,0131*72" -> {"type":"GGA","lat":19.521405833333333,"lon":-99.02394766666667,"altitude":2235.2,"satellites":12,"handled":true,"error":null}
2025-10-10T22:21:18.356Z ip=::ffff:142.202.48.16 id=0001 raw="$GNGGA,222118.00,1931.28457,N,09901.43680,W,2,12,0.56,2235.0,M,-7.6,M,,0131*7E" -> {"type":"GGA","lat":19.5214095,"lon":-99.02394666666666,"altitude":2235,"satellites":12,"handled":true,"error":null}
2025-10-10T22:21:19.374Z ip=::ffff:142.202.48.16 id=0001 raw="$GNGGA,222119.00,1931.28470,N,09901.43668,W,2,12,0.55,2234.7,M,-7.6,M,,0131*79" -> {"type":"GGA","lat":19.521411666666665,"lon":-99.02394466666667,"altitude":2234.7,"satellites":12,"handled":true,"error":null}
2025-10-10T22:21:20.340Z ip=::ffff:142.202.48.16 id=0001 raw="$GNGGA,222120.00,1931.28489,N,09901.43656,W,2,12,0.56,2234.3,M,-7.6,M,,0131*7F" -> {"type":"GGA","lat":19.521414833333335,"lon":-99.02394266666667,"altitude":2234.3,"satellites":12,"handled":true,"error":null}
2025-10-10T22:21:21.391Z ip=::ffff:142.202.48.16 id=0001 raw="$GNGGA,222121.00,1931.28502,N,09901.43641,W,2,12,0.56,2234.1,M,-7.6,M,,0131*78" -> {"type":"GGA","lat":19.521417,"lon":-99.02394016666666,"altitude":2234.1,"satellites":12,"handled":true,"error":null}
2025-10-10T22:21:22.396Z ip=::ffff:142.202.48.16 id=0001 raw="$GNGGA,222122.00,1931.28506,N,09901.43618,W,2,12,0.55,2233.6,M,-7.6,M,,0131*70" -> {"type":"GGA","lat":19.521417666666668,"lon":-99.02393633333334,"altitude":2233.6,"satellites":12,"handled":true,"error":null}
2025-10-10T22:21:23.314Z ip=::ffff:142.202.48.16 id=0001 raw="$GNGGA,222123.00,1931.28490,N,09901.43610,W,2,12,0.55,2233.3,M,-7.6,M,,0131*72" -> {"type":"GGA","lat":19.521415,"lon":-99.023935,"altitude":2233.3,"satellites":12,"handled":true,"error":null}
2025-10-10T22:21:24.323Z ip=::ffff:142.202.48.16 id=0001 raw="$GNGGA,222124.00,1931.28469,N,09901.43613,W,2,12,0.55,2233.3,M,-7.6,M,,0131*70" -> {"type":"GGA","lat":19.5214115,"lon":-99.0239355,"altitude":2233.3,"satellites":12,"handled":true,"error":null}
2025-10-10T22:21:25.356Z ip=::ffff:142.202.48.16 id=0001 raw="$GNGGA,222125.00,1931.28450,N,09901.43622,W,2,12,0.59,2233.3,M,-7.6,M,,0131*75" -> {"type":"GGA","lat":19.521408333333333,"lon":-99.023937,"altitude":2233.3,"satellites":12,"handled":true,"error":null}
2025-10-10T22:21:26.340Z ip=::ffff:142.202.48.16 id=0001 raw="$GNGGA,222126.00,1931.28415,N,09901.43630,W,2,12,0.59,2233.2,M,-7.6,M,,0131*75" -> {"type":"GGA","lat":19.5214025,"lon":-99.02393833333333,"altitude":2233.2,"satellites":12,"handled":true,"error":null}
2025-10-10T22:21:27.430Z ip=::ffff:142.202.48.16 id=0001 raw="$GNGGA,222127.00,1931.28409,N,09901.43637,W,2,12,0.59,2233.4,M,-7.6,M,,0131*78" -> {"type":"GGA","lat":19.5214015,"lon":-99.0239395,"altitude":2233.4,"satellites":12,"handled":true,"error":null}
2025-10-10T22:21:28.374Z ip=::ffff:142.202.48.16 id=0001 raw="$GNGGA,222128.00,1931.28424,N,09901.43620,W,2,12,0.59,2233.3,M,-7.6,M,,0131*79" -> {"type":"GGA","lat":19.521404,"lon":-99.02393666666667,"altitude":2233.3,"satellites":12,"handled":true,"error":null}
2025-10-10T22:21:29.347Z ip=::ffff:142.202.48.16 id=0001 raw="$GNGGA,222129.00,1931.28449,N,09901.43604,W,2,12,0.63,2233.7,M,-7.6,M,,0131*78" -> {"type":"GGA","lat":19.521408166666667,"lon":-99.023934,"altitude":2233.7,"satellites":12,"handled":true,"error":null}
2025-10-10T22:21:30.312Z ip=::ffff:142.202.48.16 id=0001 raw="$GNGGA,222130.00,1931.28440,N,09901.43590,W,2,12,0.63,2234.4,M,-7.6,M,,0131*73" -> {"type":"GGA","lat":19.521406666666667,"lon":-99.02393166666667,"altitude":2234.4,"satellites":12,"handled":true,"error":null}
2025-10-10T22:21:31.333Z ip=::ffff:142.202.48.16 id=0001 raw="$GNGGA,222131.00,1931.28427,N,09901.43590,W,2,12,0.63,2234.4,M,-7.6,M,,0131*73" -> {"type":"GGA","lat":19.5214045,"lon":-99.02393166666667,"altitude":2234.4,"satellites":12,"handled":true,"error":null}
2025-10-10T22:21:32.323Z ip=::ffff:142.202.48.16 id=0001 raw="$GNGGA,222132.00,1931.28400,N,09901.43592,W,2,12,0.63,2234.6,M,-7.6,M,,0131*75" -> {"type":"GGA","lat":19.5214,"lon":-99.023932,"altitude":2234.6,"satellites":12,"handled":true,"error":null}
2025-10-10T22:21:33.338Z ip=::ffff:142.202.48.16 id=0001 raw="$GNGGA,222133.00,1931.28397,N,09901.43602,W,2,12,0.63,2234.2,M,-7.6,M,,0131*73" -> {"type":"GGA","lat":19.5213995,"lon":-99.02393366666666,"altitude":2234.2,"satellites":12,"handled":true,"error":null}
2025-10-10T22:21:34.317Z ip=::ffff:142.202.48.16 id=0001 raw="$GNGGA,222134.00,1931.28399,N,09901.43600,W,2,12,0.58,2234.2,M,-7.6,M,,0131*70" -> {"type":"GGA","lat":19.521399833333334,"lon":-99.02393333333333,"altitude":2234.2,"satellites":12,"handled":true,"error":null}
2025-10-10T22:21:35.340Z ip=::ffff:142.202.48.16 id=0001 raw="$GNGGA,222135.00,1931.28398,N,09901.43608,W,2,12,0.59,2234.1,M,-7.6,M,,0131*7A" -> {"type":"GGA","lat":19.521399666666667,"lon":-99.02393466666666,"altitude":2234.1,"satellites":12,"handled":true,"error":null}
2025-10-10T22:21:36.353Z ip=::ffff:142.202.48.16 id=0001 raw="$GNGGA,222136.00,1931.28396,N,09901.43613,W,2,12,0.59,2234.0,M,-7.6,M,,0131*7C" -> {"type":"GGA","lat":19.521399333333335,"lon":-99.0239355,"altitude":2234,"satellites":12,"handled":true,"error":null}
2025-10-10T22:21:37.314Z ip=::ffff:142.202.48.16 id=0001 raw="$GNGGA,222137.00,1931.28381,N,09901.43616,W,2,12,0.55,2234.1,M,-7.6,M,,0131*73" -> {"type":"GGA","lat":19.521396833333334,"lon":-99.023936,"altitude":2234.1,"satellites":12,"handled":true,"error":null}
2025-10-10T22:21:38.311Z ip=::ffff:142.202.48.16 id=0001 raw="$GNGGA,222138.00,1931.28333,N,09901.43652,W,2,12,0.59,2233.9,M,-7.6,M,,0131*76" -> {"type":"GGA","lat":19.521388833333333,"lon":-99.023942,"altitude":2233.9,"satellites":12,"handled":true,"error":null}
2025-10-10T22:21:39.349Z ip=::ffff:142.202.48.16 id=0001 raw="$GNGGA,222139.00,1931.28320,N,09901.43666,W,2,12,0.59,2233.8,M,-7.6,M,,0131*73" -> {"type":"GGA","lat":19.521386666666668,"lon":-99.02394433333333,"altitude":2233.8,"satellites":12,"handled":true,"error":null}
2025-10-10T22:21:40.364Z ip=::ffff:142.202.48.16 id=0001 raw="$GNGGA,222140.00,1931.28299,N,09901.43668,W,2,12,0.55,2234.0,M,-7.6,M,,0131*73" -> {"type":"GGA","lat":19.521383166666666,"lon":-99.02394466666667,"altitude":2234,"satellites":12,"handled":true,"error":null}
2025-10-10T22:21:42.124Z ip=::ffff:142.202.48.16 id=0001 raw="$GNGGA,222141.00,1931.28292,N,09901.43674,W,2,12,0.59,2234.3,M,-7.6,M,,0131*7B" -> {"type":"GGA","lat":19.521382,"lon":-99.02394566666666,"altitude":2234.3,"satellites":12,"handled":true,"error":null}
2025-10-10T22:21:42.700Z ip=::ffff:142.202.48.16 id=0001 raw="$GNGGA,222142.00,1931.28292,N,09901.43687,W,2,12,0.59,2234.1,M,-7.6,M,,0131*76" -> {"type":"GGA","lat":19.521382,"lon":-99.02394783333334,"altitude":2234.1,"satellites":12,"handled":true,"error":null}
2025-10-10T22:21:43.341Z ip=::ffff:142.202.48.16 id=0001 raw="$GNGGA,222143.00,1931.28301,N,09901.43729,W,2,12,0.55,2234.2,M,-7.6,M,,0131*76" -> {"type":"GGA","lat":19.5213835,"lon":-99.02395483333333,"altitude":2234.2,"satellites":12,"handled":true,"error":null}
2025-10-10T22:21:44.377Z ip=::ffff:142.202.48.16 id=0001 raw="$GNGGA,222144.00,1931.28320,N,09901.43777,W,2,12,0.59,2234.1,M,-7.6,M,,0131*76" -> {"type":"GGA","lat":19.521386666666668,"lon":-99.02396283333333,"altitude":2234.1,"satellites":12,"handled":true,"error":null}
2025-10-10T22:21:45.275Z ip=::ffff:142.202.48.16 id=0001 raw="$GNGGA,222145.00,1931.28342,N,09901.43828,W,2,12,0.60,2233.8,M,-7.6,M,,0131*72" -> {"type":"GGA","lat":19.521390333333333,"lon":-99.02397133333334,"altitude":2233.8,"satellites":12,"handled":true,"error":null}
2025-10-10T22:21:46.321Z ip=::ffff:142.202.48.16 id=0001 raw="$GNGGA,222146.00,1931.28379,N,09901.43884,W,2,12,0.60,2233.9,M,-7.6,M,,0131*7E" -> {"type":"GGA","lat":19.5213965,"lon":-99.02398066666667,"altitude":2233.9,"satellites":12,"handled":true,"error":null}
2025-10-10T22:21:47.347Z ip=::ffff:142.202.48.16 id=0001 raw="$GNGGA,222147.00,1931.28408,N,09901.43944,W,2,12,0.62,2233.8,M,-7.6,M,,0131*70" -> {"type":"GGA","lat":19.521401333333333,"lon":-99.02399066666666,"altitude":2233.8,"satellites":12,"handled":true,"error":null}
2025-10-10T22:21:48.341Z ip=::ffff:142.202.48.16 id=0001 raw="$GNGGA,222148.00,1931.28431,N,09901.43995,W,2,12,0.59,2233.9,M,-7.6,M,,0131*70" -> {"type":"GGA","lat":19.521405166666668,"lon":-99.02399916666667,"altitude":2233.9,"satellites":12,"handled":true,"error":null}
2025-10-10T22:21:49.297Z ip=::ffff:142.202.48.16 id=0001 raw="$GNGGA,222149.00,1931.28461,N,09901.44052,W,2,12,0.60,2233.9,M,-7.6,M,,0131*7B" -> {"type":"GGA","lat":19.521410166666666,"lon":-99.02400866666666,"altitude":2233.9,"satellites":12,"handled":true,"error":null}
2025-10-10T22:21:57.556Z ip=::ffff:142.202.48.16 id=0001 raw="$GNGGA,222150.00,1931.28457,N,09901.44098,W,2,12,0.64,2234.3,M,-7.6,M,,0131*79" -> {"type":"GGA","lat":19.5214095,"lon":-99.02401633333334,"altitude":2234.3,"satellites":12,"handled":true,"error":null}
2025-10-10T22:21:57.557Z ip=::ffff:142.202.48.16 id=0001 raw="$GNGGA,222151.00,1931.28489,N,09901.44138,W,2,12,0.64,2234.5,M,-7.6,M,,0131*76" -> {"type":"GGA","lat":19.521414833333335,"lon":-99.024023,"altitude":2234.5,"satellites":12,"handled":true,"error":null}
2025-10-10T22:21:57.557Z ip=::ffff:142.202.48.16 id=0001 raw="$GNGGA,222152.00,1931.28488,N,09901.44195,W,2,12,0.67,2234.7,M,-7.6,M,,0131*72" -> {"type":"GGA","lat":19.521414666666665,"lon":-99.0240325,"altitude":2234.7,"satellites":12,"handled":true,"error":null}
2025-10-10T22:21:57.557Z ip=::ffff:142.202.48.16 id=0001 raw="$GNGGA,222153.00,1931.28511,N,09901.44242,W,2,12,0.68,2235.1,M,-7.6,M,,0131*73" -> {"type":"GGA","lat":19.5214185,"lon":-99.02404033333333,"altitude":2235.1,"satellites":12,"handled":true,"error":null}
2025-10-10T22:21:57.558Z ip=::ffff:142.202.48.16 id=0001 raw="$GNGGA,222154.00,1931.28539,N,09901.44300,W,2,12,0.67,2235.3,M,-7.6,M,,0131*74" -> {"type":"GGA","lat":19.521423166666665,"lon":-99.02405,"altitude":2235.3,"satellites":12,"handled":true,"error":null}
2025-10-10T22:21:57.558Z ip=::ffff:142.202.48.16 id=0001 raw="$GNGGA,222155.00,1931.28549,N,09901.44365,W,2,12,0.66,2235.6,M,-7.6,M,,0131*75" -> {"type":"GGA","lat":19.521424833333334,"lon":-99.02406083333334,"altitude":2235.6,"satellites":12,"handled":true,"error":null}
2025-10-10T22:21:57.558Z ip=::ffff:142.202.48.16 id=0001 raw="$GNGGA,222156.00,1931.28560,N,09901.44432,W,2,12,0.68,2236.2,M,-7.6,M,,0131*71" -> {"type":"GGA","lat":19.521426666666667,"lon":-99.024072,"altitude":2236.2,"satellites":12,"handled":true,"error":null}
2025-10-10T22:21:57.599Z ip=::ffff:142.202.48.16 id=0001 raw="$GNGGA,222157.00,1931.28537,N,09901.44503,W,2,12,0.66,2235.9,M,-7.6,M,,0131*77" -> {"type":"GGA","lat":19.521422833333332,"lon":-99.02408383333334,"altitude":2235.9,"satellites":12,"handled":true,"error":null}
2025-10-10T22:22:02.685Z ip=::ffff:142.202.48.16 id=0001 raw="$GNGGA,222158.00,1931.28531,N,09901.44534,W,2,12,0.59,2236.3,M,-7.6,M,,0131*7F" -> {"type":"GGA","lat":19.521421833333335,"lon":-99.024089,"altitude":2236.3,"satellites":12,"handled":true,"error":null}
2025-10-10T22:22:13.875Z ip=::ffff:142.202.48.16 id=0001 raw="$GNGGA,222159.00,1931.28532,N,09901.44530,W,2,12,0.63,2236.6,M,-7.6,M,,0131*75" -> {"type":"GGA","lat":19.521422,"lon":-99.02408833333334,"altitude":2236.6,"satellites":12,"handled":true,"error":null}
2025-10-10T22:22:13.876Z ip=::ffff:142.202.48.16 id=0001 raw="$GNGGA,222200.00,1931.28533,N,09901.44533,W,2,12,0.59,2236.8,M,-7.6,M,,0131*7F" -> {"type":"GGA","lat":19.521422166666667,"lon":-99.02408883333334,"altitude":2236.8,"satellites":12,"handled":true,"error":null}
2025-10-10T22:22:13.876Z ip=::ffff:142.202.48.16 id=0001 raw="$GNGGA,222201.00,1931.28536,N,09901.44530,W,2,12,0.55,2236.6,M,-7.6,M,,0131*7A" -> {"type":"GGA","lat":19.521422666666666,"lon":-99.02408833333334,"altitude":2236.6,"satellites":12,"handled":true,"error":null}
2025-10-10T22:22:13.876Z ip=::ffff:142.202.48.16 id=0001 raw="$GNGGA,222202.00,1931.28542,N,09901.44527,W,2,12,0.55,2236.3,M,-7.6,M,,0131*79" -> {"type":"GGA","lat":19.521423666666667,"lon":-99.02408783333334,"altitude":2236.3,"satellites":12,"handled":true,"error":null}
2025-10-10T22:22:13.877Z ip=::ffff:142.202.48.16 id=0001 raw="$GNGGA,222203.00,1931.28553,N,09901.44529,W,2,12,0.55,2235.9,M,-7.6,M,,0131*7F" -> {"type":"GGA","lat":19.5214255,"lon":-99.02408816666667,"altitude":2235.9,"satellites":12,"handled":true,"error":null}
2025-10-10T22:22:13.877Z ip=::ffff:142.202.48.16 id=0001 raw="$GNGGA,222204.00,1931.28557,N,09901.44524,W,2,12,0.53,2235.6,M,-7.6,M,,0131*78" -> {"type":"GGA","lat":19.521426166666668,"lon":-99.02408733333333,"altitude":2235.6,"satellites":12,"handled":true,"error":null}
2025-10-10T22:22:13.877Z ip=::ffff:142.202.48.16 id=0001 raw="$GNGGA,222205.00,1931.28562,N,09901.44519,W,2,12,0.55,2235.3,M,-7.6,M,,0131*72" -> {"type":"GGA","lat":19.521427,"lon":-99.0240865,"altitude":2235.3,"satellites":12,"handled":true,"error":null}
2025-10-10T22:22:13.878Z ip=::ffff:142.202.48.16 id=0001 raw="$GNGGA,222206.00,1931.28561,N,09901.44524,W,2,12,0.55,2235.1,M,-7.6,M,,0131*7E" -> {"type":"GGA","lat":19.521426833333333,"lon":-99.02408733333333,"altitude":2235.1,"satellites":12,"handled":true,"error":null}
2025-10-10T22:22:13.878Z ip=::ffff:142.202.48.16 id=0001 raw="$GNGGA,222207.00,1931.28566,N,09901.44531,W,2,12,0.53,2235.0,M,-7.6,M,,0131*7B" -> {"type":"GGA","lat":19.521427666666668,"lon":-99.0240885,"altitude":2235,"satellites":12,"handled":true,"error":null}
2025-10-10T22:22:13.878Z ip=::ffff:142.202.48.16 id=0001 raw="$GNGGA,222208.00,1931.28562,N,09901.44545,W,2,12,0.55,2234.9,M,-7.6,M,,0131*7D" -> {"type":"GGA","lat":19.521427,"lon":-99.02409083333333,"altitude":2234.9,"satellites":12,"handled":true,"error":null}
2025-10-10T22:22:13.879Z ip=::ffff:142.202.48.16 id=0001 raw="$GNGGA,222209.00,1931.28558,N,09901.44560,W,2,12,0.55,2234.9,M,-7.6,M,,0131*72" -> {"type":"GGA","lat":19.521426333333334,"lon":-99.02409333333334,"altitude":2234.9,"satellites":12,"handled":true,"error":null}
2025-10-10T22:22:13.879Z ip=::ffff:142.202.48.16 id=0001 raw="$GNGGA,222210.00,1931.28555,N,09901.44572,W,2,12,0.53,2234.8,M,-7.6,M,,0131*73" -> {"type":"GGA","lat":19.521425833333332,"lon":-99.02409533333334,"altitude":2234.8,"satellites":12,"handled":true,"error":null}
2025-10-10T22:22:14.363Z ip=::ffff:142.202.48.16 id=0001 raw="$GNGGA,222211.00,1931.28542,N,09901.44563,W,2,12,0.58,2234.8,M,-7.6,M,,0131*7F" -> {"type":"GGA","lat":19.521423666666667,"lon":-99.02409383333334,"altitude":2234.8,"satellites":12,"handled":true,"error":null}
2025-10-10T22:22:14.364Z ip=::ffff:142.202.48.16 id=0001 raw="$GNGGA,222212.00,1931.28500,N,09901.44543,W,2,12,0.58,2234.9,M,-7.6,M,,0131*79" -> {"type":"GGA","lat":19.521416666666667,"lon":-99.0240905,"altitude":2234.9,"satellites":12,"handled":true,"error":null}
2025-10-10T22:22:14.364Z ip=::ffff:142.202.48.16 id=0001 raw="$GNGGA,222213.00,1931.28483,N,09901.44502,W,2,12,0.58,2235.0,M,-7.6,M,,0131*7F" -> {"type":"GGA","lat":19.521413833333334,"lon":-99.02408366666667,"altitude":2235,"satellites":12,"handled":true,"error":null}
2025-10-10T22:22:14.364Z ip=::ffff:142.202.48.16 id=0001 raw="$GNGGA,222214.00,1931.28461,N,09901.44462,W,2,12,0.58,2234.9,M,-7.6,M,,0131*7B" -> {"type":"GGA","lat":19.521410166666666,"lon":-99.024077,"altitude":2234.9,"satellites":12,"handled":true,"error":null}
2025-10-10T22:22:15.360Z ip=::ffff:142.202.48.16 id=0001 raw="$GNGGA,222215.00,1931.28438,N,09901.44426,W,2,12,0.58,2234.5,M,-7.6,M,,0131*7A" -> {"type":"GGA","lat":19.521406333333335,"lon":-99.024071,"altitude":2234.5,"satellites":12,"handled":true,"error":null}
2025-10-10T22:22:16.250Z ip=::ffff:142.202.48.16 id=0001 raw="$GNGGA,222216.00,1931.28406,N,09901.44384,W,2,12,0.57,2234.0,M,-7.6,M,,0131*71" -> {"type":"GGA","lat":19.521401,"lon":-99.024064,"altitude":2234,"satellites":12,"handled":true,"error":null}
2025-10-10T22:22:17.264Z ip=::ffff:142.202.48.16 id=0001 raw="$GNGGA,222217.00,1931.28383,N,09901.44324,W,2,12,0.61,2233.9,M,-7.6,M,,0131*7B" -> {"type":"GGA","lat":19.521397166666667,"lon":-99.024054,"altitude":2233.9,"satellites":12,"handled":true,"error":null}
2025-10-10T22:22:18.279Z ip=::ffff:142.202.48.16 id=0001 raw="$GNGGA,222218.00,1931.28371,N,09901.44264,W,2,12,0.61,2233.9,M,-7.6,M,,0131*7C" -> {"type":"GGA","lat":19.521395166666668,"lon":-99.024044,"altitude":2233.9,"satellites":12,"handled":true,"error":null}
2025-10-10T22:22:19.357Z ip=::ffff:142.202.48.16 id=0001 raw="$GNGGA,222219.00,1931.28359,N,09901.44202,W,2,12,0.61,2233.8,M,-7.6,M,,0131*76" -> {"type":"GGA","lat":19.521393166666666,"lon":-99.02403366666667,"altitude":2233.8,"satellites":12,"handled":true,"error":null}
2025-10-10T22:22:20.254Z ip=::ffff:142.202.48.16 id=0001 raw="$GNGGA,222220.00,1931.28346,N,09901.44137,W,2,12,0.62,2233.5,M,-7.6,M,,0131*79" -> {"type":"GGA","lat":19.521391,"lon":-99.02402283333333,"altitude":2233.5,"satellites":12,"handled":true,"error":null}
2025-10-10T22:22:21.250Z ip=::ffff:142.202.48.16 id=0001 raw="$GNGGA,222221.00,1931.28347,N,09901.44073,W,2,12,0.69,2233.9,M,-7.6,M,,0131*7F" -> {"type":"GGA","lat":19.521391166666668,"lon":-99.02401216666667,"altitude":2233.9,"satellites":12,"handled":true,"error":null}
2025-10-10T22:22:22.277Z ip=::ffff:142.202.48.16 id=0001 raw="$GNGGA,222222.00,1931.28361,N,09901.44020,W,2,12,0.69,2235.0,M,-7.6,M,,0131*71" -> {"type":"GGA","lat":19.5213935,"lon":-99.02400333333334,"altitude":2235,"satellites":12,"handled":true,"error":null}
2025-10-10T22:22:23.299Z ip=::ffff:142.202.48.16 id=0001 raw="$GNGGA,222223.00,1931.28331,N,09901.43979,W,2,12,0.58,2235.0,M,-7.6,M,,0131*75" -> {"type":"GGA","lat":19.5213885,"lon":-99.0239965,"altitude":2235,"satellites":12,"handled":true,"error":null}
2025-10-10T22:22:24.247Z ip=::ffff:142.202.48.16 id=0001 raw="$GNGGA,222224.00,1931.28305,N,09901.43928,W,2,12,0.58,2235.0,M,-7.6,M,,0131*71" -> {"type":"GGA","lat":19.521384166666667,"lon":-99.023988,"altitude":2235,"satellites":12,"handled":true,"error":null}
2025-10-10T22:22:25.315Z ip=::ffff:142.202.48.16 id=0001 raw="$GNGGA,222225.00,1931.28259,N,09901.43877,W,2,12,0.55,2235.1,M,-7.6,M,,0131*7F" -> {"type":"GGA","lat":19.5213765,"lon":-99.0239795,"altitude":2235.1,"satellites":12,"handled":true,"error":null}
2025-10-10T22:22:26.364Z ip=::ffff:142.202.48.16 id=0001 raw="$GNGGA,222226.00,1931.28237,N,09901.43839,W,2,12,0.60,2235.4,M,-7.6,M,,0131*7D" -> {"type":"GGA","lat":19.521372833333334,"lon":-99.02397316666666,"altitude":2235.4,"satellites":12,"handled":true,"error":null}
2025-10-10T22:22:27.263Z ip=::ffff:142.202.48.16 id=0001 raw="$GNGGA,222227.00,1931.28234,N,09901.43802,W,2,12,0.58,2235.2,M,-7.6,M,,0131*7A" -> {"type":"GGA","lat":19.521372333333332,"lon":-99.023967,"altitude":2235.2,"satellites":12,"handled":true,"error":null}
2025-10-10T22:22:28.263Z ip=::ffff:142.202.48.16 id=0001 raw="$GNGGA,222228.00,1931.28242,N,09901.43785,W,2,12,0.55,2235.5,M,-7.6,M,,0131*7E" -> {"type":"GGA","lat":19.521373666666666,"lon":-99.02396416666667,"altitude":2235.5,"satellites":12,"handled":true,"error":null}
2025-10-10T22:22:29.272Z ip=::ffff:142.202.48.16 id=0001 raw="$GNGGA,222229.00,1931.28249,N,09901.43790,W,2,12,0.58,2235.6,M,-7.6,M,,0131*7E" -> {"type":"GGA","lat":19.521374833333333,"lon":-99.023965,"altitude":2235.6,"satellites":12,"handled":true,"error":null}
2025-10-10T22:22:30.311Z ip=::ffff:142.202.48.16 id=0001 raw="$GNGGA,222230.00,1931.28249,N,09901.43793,W,2,12,0.58,2235.6,M,-7.6,M,,0131*75" -> {"type":"GGA","lat":19.521374833333333,"lon":-99.0239655,"altitude":2235.6,"satellites":12,"handled":true,"error":null}
2025-10-10T22:22:31.354Z ip=::ffff:142.202.48.16 id=0001 raw="$GNGGA,222231.00,1931.28245,N,09901.43789,W,2,12,0.58,2235.6,M,-7.6,M,,0131*73" -> {"type":"GGA","lat":19.521374166666668,"lon":-99.02396483333334,"altitude":2235.6,"satellites":12,"handled":true,"error":null}
2025-10-10T22:22:32.279Z ip=::ffff:142.202.48.16 id=0001 raw="$GNGGA,222232.00,1931.28239,N,09901.43779,W,2,12,0.59,2235.8,M,-7.6,M,,0131*7B" -> {"type":"GGA","lat":19.521373166666667,"lon":-99.02396316666666,"altitude":2235.8,"satellites":12,"handled":true,"error":null}
2025-10-10T22:22:33.260Z ip=::ffff:142.202.48.16 id=0001 raw="$GNGGA,222233.00,1931.28255,N,09901.43795,W,2,12,0.58,2235.6,M,-7.6,M,,0131*7D" -> {"type":"GGA","lat":19.521375833333334,"lon":-99.02396583333334,"altitude":2235.6,"satellites":12,"handled":true,"error":null}
2025-10-10T22:22:34.301Z ip=::ffff:142.202.48.16 id=0001 raw="$GNGGA,222234.00,1931.28277,N,09901.43811,W,2,12,0.58,2235.8,M,-7.6,M,,0131*77" -> {"type":"GGA","lat":19.5213795,"lon":-99.0239685,"altitude":2235.8,"satellites":12,"handled":true,"error":null}
2025-10-10T22:22:35.276Z ip=::ffff:142.202.48.16 id=0001 raw="$GNGGA,222235.00,1931.28298,N,09901.43833,W,2,12,0.58,2236.4,M,-7.6,M,,0131*78" -> {"type":"GGA","lat":19.521383,"lon":-99.02397216666667,"altitude":2236.4,"satellites":12,"handled":true,"error":null}
2025-10-10T22:22:36.317Z ip=::ffff:142.202.48.16 id=0001 raw="$GNGGA,222236.00,1931.28297,N,09901.43844,W,2,12,0.58,2236.2,M,-7.6,M,,0131*72" -> {"type":"GGA","lat":19.521382833333334,"lon":-99.023974,"altitude":2236.2,"satellites":12,"handled":true,"error":null}
2025-10-10T22:22:37.353Z ip=::ffff:142.202.48.16 id=0001 raw="$GNGGA,222237.00,1931.28305,N,09901.43858,W,2,12,0.64,2236.0,M,-7.6,M,,0131*79" -> {"type":"GGA","lat":19.521384166666667,"lon":-99.02397633333334,"altitude":2236,"satellites":12,"handled":true,"error":null}
2025-10-10T22:22:38.283Z ip=::ffff:142.202.48.16 id=0001 raw="$GNGGA,222238.00,1931.28321,N,09901.43859,W,2,12,0.64,2235.9,M,-7.6,M,,0131*7B" -> {"type":"GGA","lat":19.521386833333334,"lon":-99.0239765,"altitude":2235.9,"satellites":12,"handled":true,"error":null}
2025-10-10T22:22:39.262Z ip=::ffff:142.202.48.16 id=0001 raw="$GNGGA,222239.00,1931.28312,N,09901.43866,W,2,12,0.62,2235.5,M,-7.6,M,,0131*7C" -> {"type":"GGA","lat":19.521385333333335,"lon":-99.02397766666667,"altitude":2235.5,"satellites":12,"handled":true,"error":null}
2025-10-10T22:22:40.278Z ip=::ffff:142.202.48.16 id=0001 raw="$GNGGA,222240.00,1931.28275,N,09901.43893,W,2,12,0.58,2235.7,M,-7.6,M,,0131*73" -> {"type":"GGA","lat":19.521379166666666,"lon":-99.02398216666667,"altitude":2235.7,"satellites":12,"handled":true,"error":null}
2025-10-10T22:22:41.269Z ip=::ffff:142.202.48.16 id=0001 raw="$GNGGA,222241.00,1931.28289,N,09901.43911,W,2,12,0.64,2235.7,M,-7.6,M,,0131*75" -> {"type":"GGA","lat":19.5213815,"lon":-99.02398516666666,"altitude":2235.7,"satellites":12,"handled":true,"error":null}
2025-10-10T22:22:42.311Z ip=::ffff:142.202.48.16 id=0001 raw="$GNGGA,222242.00,1931.28291,N,09901.43917,W,2,12,0.66,2235.2,M,-7.6,M,,0131*7E" -> {"type":"GGA","lat":19.521381833333333,"lon":-99.02398616666666,"altitude":2235.2,"satellites":12,"handled":true,"error":null}
2025-10-10T22:22:43.292Z ip=::ffff:142.202.48.16 id=0001 raw="$GNGGA,222243.00,1931.28286,N,09901.43917,W,2,12,0.58,2234.9,M,-7.6,M,,0131*7E" -> {"type":"GGA","lat":19.521381,"lon":-99.02398616666666,"altitude":2234.9,"satellites":12,"handled":true,"error":null}
2025-10-10T22:22:44.334Z ip=::ffff:142.202.48.16 id=0001 raw="$GNGGA,222244.00,1931.28287,N,09901.43936,W,2,12,0.63,2235.1,M,-7.6,M,,0131*7A" -> {"type":"GGA","lat":19.521381166666668,"lon":-99.02398933333333,"altitude":2235.1,"satellites":12,"handled":true,"error":null}
2025-10-10T22:22:45.289Z ip=::ffff:142.202.48.16 id=0001 raw="$GNGGA,222245.00,1931.28297,N,09901.43947,W,2,12,0.58,2235.4,M,-7.6,M,,0131*71" -> {"type":"GGA","lat":19.521382833333334,"lon":-99.02399116666666,"altitude":2235.4,"satellites":12,"handled":true,"error":null}
2025-10-10T22:22:46.279Z ip=::ffff:142.202.48.16 id=0001 raw="$GNGGA,222246.00,1931.28337,N,09901.43944,W,2,12,0.55,2236.0,M,-7.6,M,,0131*70" -> {"type":"GGA","lat":19.5213895,"lon":-99.02399066666666,"altitude":2236,"satellites":12,"handled":true,"error":null}
2025-10-10T22:22:47.264Z ip=::ffff:142.202.48.16 id=0001 raw="$GNGGA,222247.00,1931.28346,N,09901.43925,W,2,12,0.58,2235.7,M,-7.6,M,,0131*79" -> {"type":"GGA","lat":19.521391,"lon":-99.0239875,"altitude":2235.7,"satellites":12,"handled":true,"error":null}
2025-10-10T22:22:48.327Z ip=::ffff:142.202.48.16 id=0001 raw="$GNGGA,222248.00,1931.28352,N,09901.43917,W,2,12,0.58,2235.3,M,-7.6,M,,0131*76" -> {"type":"GGA","lat":19.521392,"lon":-99.02398616666666,"altitude":2235.3,"satellites":12,"handled":true,"error":null}
2025-10-10T22:22:49.276Z ip=::ffff:142.202.48.16 id=0001 raw="$GNGGA,222249.00,1931.28313,N,09901.43907,W,2,12,0.55,2234.9,M,-7.6,M,,0131*75" -> {"type":"GGA","lat":19.5213855,"lon":-99.0239845,"altitude":2234.9,"satellites":12,"handled":true,"error":null}
2025-10-10T22:22:50.259Z ip=::ffff:142.202.48.16 id=0001 raw="$GNGGA,222250.00,1931.28289,N,09901.43905,W,2,12,0.58,2235.5,M,-7.6,M,,0131*7D" -> {"type":"GGA","lat":19.5213815,"lon":-99.02398416666666,"altitude":2235.5,"satellites":12,"handled":true,"error":null}
2025-10-10T22:22:51.265Z ip=::ffff:142.202.48.16 id=0001 raw="$GNGGA,222251.00,1931.28276,N,09901.43901,W,2,12,0.58,2236.3,M,-7.6,M,,0131*7D" -> {"type":"GGA","lat":19.521379333333332,"lon":-99.0239835,"altitude":2236.3,"satellites":12,"handled":true,"error":null}
2025-10-10T22:22:52.260Z ip=::ffff:142.202.48.16 id=0001 raw="$GNGGA,222252.00,1931.28270,N,09901.43878,W,2,12,0.55,2236.5,M,-7.6,M,,0131*7C" -> {"type":"GGA","lat":19.521378333333335,"lon":-99.02397966666666,"altitude":2236.5,"satellites":12,"handled":true,"error":null}
2025-10-10T22:22:53.265Z ip=::ffff:142.202.48.16 id=0001 raw="$GNGGA,222253.00,1931.28260,N,09901.43844,W,2,12,0.58,2236.5,M,-7.6,M,,0131*7E" -> {"type":"GGA","lat":19.521376666666665,"lon":-99.023974,"altitude":2236.5,"satellites":12,"handled":true,"error":null}
2025-10-10T22:22:54.323Z ip=::ffff:142.202.48.16 id=0001 raw="$GNGGA,222254.00,1931.28254,N,09901.43814,W,2,12,0.58,2236.7,M,-7.6,M,,0131*79" -> {"type":"GGA","lat":19.521375666666668,"lon":-99.023969,"altitude":2236.7,"satellites":12,"handled":true,"error":null}
2025-10-10T22:22:55.282Z ip=::ffff:142.202.48.16 id=0001 raw="$GNGGA,222255.00,1931.28249,N,09901.43782,W,2,12,0.56,2236.5,M,-7.6,M,,0131*78" -> {"type":"GGA","lat":19.521374833333333,"lon":-99.02396366666666,"altitude":2236.5,"satellites":12,"handled":true,"error":null}
2025-10-10T22:22:56.300Z ip=::ffff:142.202.48.16 id=0001 raw="$GNGGA,222256.00,1931.28243,N,09901.43755,W,2,12,0.58,2236.6,M,-7.6,M,,0131*76" -> {"type":"GGA","lat":19.52137383333333,"lon":-99.02395916666667,"altitude":2236.6,"satellites":12,"handled":true,"error":null}
2025-10-10T22:22:57.255Z ip=::ffff:142.202.48.16 id=0001 raw="$GNGGA,222257.00,1931.28236,N,09901.43738,W,2,12,0.58,2236.4,M,-7.6,M,,0131*7C" -> {"type":"GGA","lat":19.521372666666668,"lon":-99.02395633333333,"altitude":2236.4,"satellites":12,"handled":true,"error":null}
2025-10-10T22:22:58.282Z ip=::ffff:142.202.48.16 id=0001 raw="$GNGGA,222258.00,1931.28222,N,09901.43715,W,2,12,0.55,2236.1,M,-7.6,M,,0131*71" -> {"type":"GGA","lat":19.521370333333333,"lon":-99.0239525,"altitude":2236.1,"satellites":12,"handled":true,"error":null}
2025-10-10T22:22:59.303Z ip=::ffff:142.202.48.16 id=0001 raw="$GNGGA,222259.00,1931.28215,N,09901.43688,W,2,12,0.58,2236.2,M,-7.6,M,,0131*7F" -> {"type":"GGA","lat":19.521369166666666,"lon":-99.023948,"altitude":2236.2,"satellites":12,"handled":true,"error":null}
2025-10-10T22:23:00.352Z ip=::ffff:142.202.48.16 id=0001 raw="$GNGGA,222300.00,1931.28206,N,09901.43657,W,2,12,0.58,2236.4,M,-7.6,M,,0131*74" -> {"type":"GGA","lat":19.521367666666666,"lon":-99.02394283333334,"altitude":2236.4,"satellites":12,"handled":true,"error":null}
2025-10-10T22:23:01.276Z ip=::ffff:142.202.48.16 id=0001 raw="$GNGGA,222301.00,1931.28198,N,09901.43670,W,2,12,0.55,2236.5,M,-7.6,M,,0131*78" -> {"type":"GGA","lat":19.521366333333333,"lon":-99.023945,"altitude":2236.5,"satellites":12,"handled":true,"error":null}
2025-10-10T22:23:02.290Z ip=::ffff:142.202.48.16 id=0001 raw="$GNGGA,222302.00,1931.28193,N,09901.43650,W,2,12,0.57,2236.2,M,-7.6,M,,0131*77" -> {"type":"GGA","lat":19.5213655,"lon":-99.02394166666667,"altitude":2236.2,"satellites":12,"handled":true,"error":null}
2025-10-10T22:23:03.316Z ip=::ffff:142.202.48.16 id=0001 raw="$GNGGA,222303.00,1931.28193,N,09901.43638,W,2,12,0.57,2236.7,M,-7.6,M,,0131*7D" -> {"type":"GGA","lat":19.5213655,"lon":-99.02393966666666,"altitude":2236.7,"satellites":12,"handled":true,"error":null}
2025-10-10T22:23:04.277Z ip=::ffff:142.202.48.16 id=0001 raw="$GNGGA,222304.00,1931.28186,N,09901.43616,W,2,12,0.57,2236.9,M,-7.6,M,,0131*7C" -> {"type":"GGA","lat":19.521364333333334,"lon":-99.023936,"altitude":2236.9,"satellites":12,"handled":true,"error":null}
2025-10-10T22:23:05.292Z ip=::ffff:142.202.48.16 id=0001 raw="$GNGGA,222305.00,1931.28184,N,09901.43587,W,2,12,0.57,2236.9,M,-7.6,M,,0131*74" -> {"type":"GGA","lat":19.521364,"lon":-99.02393116666667,"altitude":2236.9,"satellites":12,"handled":true,"error":null}
2025-10-10T22:23:06.349Z ip=::ffff:142.202.48.16 id=0001 raw="$GNGGA,222306.00,1931.28166,N,09901.43557,W,2,12,0.56,2237.5,M,-7.6,M,,0131*7A" -> {"type":"GGA","lat":19.521361,"lon":-99.02392616666667,"altitude":2237.5,"satellites":12,"handled":true,"error":null}
2025-10-10T22:23:07.283Z ip=::ffff:142.202.48.16 id=0001 raw="$GNGGA,222307.00,1931.28156,N,09901.43533,W,2,12,0.55,2236.8,M,-7.6,M,,0131*75" -> {"type":"GGA","lat":19.521359333333333,"lon":-99.02392216666667,"altitude":2236.8,"satellites":12,"handled":true,"error":null}
2025-10-10T22:23:08.297Z ip=::ffff:142.202.48.16 id=0001 raw="$GNGGA,222308.00,1931.28156,N,09901.43503,W,2,12,0.57,2236.7,M,-7.6,M,,0131*74" -> {"type":"GGA","lat":19.521359333333333,"lon":-99.02391716666666,"altitude":2236.7,"satellites":12,"handled":true,"error":null}
2025-10-10T22:23:09.350Z ip=::ffff:142.202.48.16 id=0001 raw="$GNGGA,222309.00,1931.28184,N,09901.43472,W,2,12,0.55,2236.1,M,-7.6,M,,0131*79" -> {"type":"GGA","lat":19.521364,"lon":-99.023912,"altitude":2236.1,"satellites":12,"handled":true,"error":null}
2025-10-10T22:23:10.288Z ip=::ffff:142.202.48.16 id=0001 raw="$GNGGA,222310.00,1931.28209,N,09901.43452,W,2,12,0.55,2236.1,M,-7.6,M,,0131*75" -> {"type":"GGA","lat":19.521368166666665,"lon":-99.02390866666667,"altitude":2236.1,"satellites":12,"handled":true,"error":null}
2025-10-10T22:23:11.318Z ip=::ffff:142.202.48.16 id=0001 raw="$GNGGA,222311.00,1931.28236,N,09901.43444,W,2,12,0.55,2235.8,M,-7.6,M,,0131*75" -> {"type":"GGA","lat":19.521372666666668,"lon":-99.02390733333333,"altitude":2235.8,"satellites":12,"handled":true,"error":null}
