2025-10-10T21:26:45.283Z 142.202.48.16 0001 $GNGGA,212607.00,1931.28336,N,09901.43086,W,2,12,0.50,2231.8,M,-7.6,M,,0131*7E
2025-10-10T21:26:45.838Z 142.202.48.16 0001 $GNGGA,212608.00,1931.28336,N,09901.43086,W,2,12,0.50,2231.8,M,-7.6,M,,0131*71
2025-10-10T21:26:46.409Z 142.202.48.16 0001 $GNGGA,212646.00,1931.28327,N,09901.43073,W,2,12,0.50,2231.6,M,-7.6,M,,0131*7F
2025-10-10T21:26:47.300Z 142.202.48.16 0001 $GNGGA,212647.00,1931.28326,N,09901.43073,W,2,12,0.50,2231.7,M,-7.6,M,,0131*7E
2025-10-10T21:26:48.297Z 142.202.48.16 0001 $GNGGA,212648.00,1931.28325,N,09901.43072,W,2,12,0.50,2231.7,M,-7.6,M,,0131*73
2025-10-10T21:26:49.312Z 142.202.48.16 0001 $GNGGA,212649.00,1931.28325,N,09901.43072,W,2,12,0.50,2231.7,M,-7.6,M,,0131*72
2025-10-10T21:26:50.281Z 142.202.48.16 0001 $GNGGA,212650.00,1931.28325,N,09901.43072,W,2,12,0.50,2231.7,M,-7.6,M,,0131*7A
2025-10-10T21:26:51.298Z 142.202.48.16 0001 $GNGGA,212651.00,1931.28324,N,09901.43072,W,2,12,0.50,2231.7,M,-7.6,M,,0131*7A
2025-10-10T21:26:52.318Z 142.202.48.16 0001 $GNGGA,212652.00,1931.28323,N,09901.43072,W,2,12,0.50,2231.7,M,-7.6,M,,0131*7E
2025-10-10T21:26:53.264Z 142.202.48.16 0001 $GNGGA,212653.00,1931.28322,N,09901.43072,W,2,12,0.50,2231.7,M,-7.6,M,,0131*7E
2025-10-10T21:26:54.315Z 142.202.48.16 0001 $GNGGA,212654.00,1931.28322,N,09901.43072,W,2,12,0.50,2231.8,M,-7.6,M,,0131*76
2025-10-10T21:26:55.291Z 142.202.48.16 0001 $GNGGA,212655.00,1931.28322,N,09901.43072,W,2,12,0.50,2231.8,M,-7.6,M,,0131*77
2025-10-10T21:26:56.336Z 142.202.48.16 0001 $GNGGA,212656.00,1931.28321,N,09901.43072,W,2,12,0.50,2231.8,M,-7.6,M,,0131*77
2025-10-10T21:26:57.278Z 142.202.48.16 0001 $GNGGA,212657.00,1931.28320,N,09901.43072,W,2,12,0.50,2231.8,M,-7.6,M,,0131*77
2025-10-10T21:26:58.339Z 142.202.48.16 0001 $GNGGA,212658.00,1931.28320,N,09901.43072,W,2,12,0.50,2231.9,M,-7.6,M,,0131*79
2025-10-10T21:26:59.384Z 142.202.48.16 0001 $GNGGA,212659.00,1931.28319,N,09901.43072,W,2,12,0.50,2231.9,M,-7.6,M,,0131*72
2025-10-10T21:27:00.333Z 142.202.48.16 0001 $GNGGA,212700.00,1931.28319,N,09901.43072,W,2,12,0.50,2231.9,M,-7.6,M,,0131*7F
2025-10-10T21:27:01.277Z 142.202.48.16 0001 $GNGGA,212701.00,1931.28318,N,09901.43073,W,2,12,0.50,2231.9,M,-7.6,M,,0131*7E
2025-10-10T21:27:02.317Z 142.202.48.16 0001 $GNGGA,212702.00,1931.28317,N,09901.43073,W,2,12,0.50,2231.9,M,-7.6,M,,0131*72
2025-10-10T21:27:03.307Z 142.202.48.16 0001 $GNGGA,212703.00,1931.28317,N,09901.43072,W,2,12,0.50,2231.9,M,-7.6,M,,0131*72
2025-10-10T21:27:04.269Z 142.202.48.16 0001 $GNGGA,212704.00,1931.28316,N,09901.43072,W,2,12,0.50,2231.9,M,-7.6,M,,0131*74
2025-10-10T21:27:05.306Z 142.202.48.16 0001 $GNGGA,212705.00,1931.28315,N,09901.43071,W,2,12,0.50,2232.0,M,-7.6,M,,0131*7F
2025-10-10T21:27:06.285Z 142.202.48.16 0001 $GNGGA,212706.00,1931.28314,N,09901.43071,W,2,12,0.50,2232.0,M,-7.6,M,,0131*7D
2025-10-10T21:27:07.284Z 142.202.48.16 0001 $GNGGA,212707.00,1931.28313,N,09901.43070,W,2,12,0.50,2232.0,M,-7.6,M,,0131*7A
2025-10-10T21:27:08.298Z 142.202.48.16 0001 $GNGGA,212708.00,1931.28312,N,09901.43070,W,2,12,0.50,2232.1,M,-7.6,M,,0131*75
2025-10-10T21:27:09.305Z 142.202.48.16 0001 $GNGGA,212709.00,1931.28312,N,09901.43070,W,2,12,0.50,2232.1,M,-7.6,M,,0131*74
2025-10-10T21:27:10.285Z 142.202.48.16 0001 $GNGGA,212710.00,1931.28311,N,09901.43070,W,2,12,0.50,2232.1,M,-7.6,M,,0131*7F
2025-10-10T21:27:11.275Z 142.202.48.16 0001 $GNGGA,212711.00,1931.28310,N,09901.43070,W,2,12,0.50,2232.1,M,-7.6,M,,0131*7F
2025-10-10T21:27:12.351Z 142.202.48.16 0001 $GNGGA,212712.00,1931.28310,N,09901.43070,W,2,12,0.50,2232.1,M,-7.6,M,,0131*7C
2025-10-10T21:27:13.273Z 142.202.48.16 0001 $GNGGA,212713.00,1931.28309,N,09901.43071,W,2,12,0.50,2232.1,M,-7.6,M,,0131*74
2025-10-10T21:27:14.306Z 142.202.48.16 0001 $GNGGA,212714.00,1931.28308,N,09901.43071,W,2,12,0.50,2232.2,M,-7.6,M,,0131*71
2025-10-10T21:27:15.294Z 142.202.48.16 0001 $GNGGA,212715.00,1931.28308,N,09901.43070,W,2,12,0.50,2232.1,M,-7.6,M,,0131*72
2025-10-10T21:27:16.301Z 142.202.48.16 0001 $GNGGA,212716.00,1931.28308,N,09901.43070,W,2,12,0.50,2232.1,M,-7.6,M,,0131*71
2025-10-10T21:27:17.266Z 142.202.48.16 0001 $GNGGA,212717.00,1931.28307,N,09901.43070,W,2,12,0.50,2232.1,M,-7.6,M,,0131*7F
2025-10-10T21:27:18.290Z 142.202.48.16 0001 $GNGGA,212718.00,1931.28306,N,09901.43071,W,2,12,0.50,2232.2,M,-7.6,M,,0131*73
2025-10-10T21:27:19.274Z 142.202.48.16 0001 $GNGGA,212719.00,1931.28306,N,09901.43070,W,2,12,0.50,2232.2,M,-7.6,M,,0131*73
2025-10-10T21:27:20.271Z 142.202.48.16 0001 $GNGGA,212720.00,1931.28306,N,09901.43070,W,2,12,0.50,2232.2,M,-7.6,M,,0131*79
2025-10-10T21:27:21.284Z 142.202.48.16 0001 $GNGGA,212721.00,1931.28305,N,09901.43070,W,2,12,0.50,2232.2,M,-7.6,M,,0131*7B
2025-10-10T21:27:22.284Z 142.202.48.16 0001 $GNGGA,212722.00,1931.28305,N,09901.43070,W,2,12,0.50,2232.2,M,-7.6,M,,0131*78
2025-10-10T21:27:23.285Z 142.202.48.16 0001 $GNGGA,212723.00,1931.28304,N,09901.43070,W,2,12,0.50,2232.2,M,-7.6,M,,0131*78
2025-10-10T21:27:24.290Z 142.202.48.16 0001 $GNGGA,212724.00,1931.28303,N,09901.43071,W,2,12,0.50,2232.3,M,-7.6,M,,0131*78
2025-10-10T21:27:25.265Z 142.202.48.16 0001 $GNGGA,212725.00,1931.28301,N,09901.43071,W,2,12,0.50,2232.3,M,-7.6,M,,0131*7B
2025-10-10T21:27:26.283Z 142.202.48.16 0001 $GNGGA,212726.00,1931.28301,N,09901.43071,W,2,12,0.50,2232.3,M,-7.6,M,,0131*78
2025-10-10T21:27:27.269Z 142.202.48.16 0001 $GNGGA,212727.00,1931.28302,N,09901.43070,W,2,12,0.50,2232.3,M,-7.6,M,,0131*7B
2025-10-10T21:27:28.309Z 142.202.48.16 0001 $GNGGA,212728.00,1931.28301,N,09901.43070,W,2,12,0.50,2232.3,M,-7.6,M,,0131*77
2025-10-10T21:27:29.290Z 142.202.48.16 0001 $GNGGA,212729.00,1931.28300,N,09901.43071,W,2,12,0.50,2232.3,M,-7.6,M,,0131*76
2025-10-10T21:27:30.331Z 142.202.48.16 0001 $GNGGA,212730.00,1931.28299,N,09901.43072,W,2,12,0.50,2232.3,M,-7.6,M,,0131*7C
2025-10-10T21:27:31.269Z 142.202.48.16 0001 $GNGGA,212731.00,1931.28298,N,09901.43072,W,2,12,0.50,2232.4,M,-7.6,M,,0131*7B
2025-10-10T21:27:33.299Z 142.202.48.16 0001 $GNGGA,212733.00,1931.28297,N,09901.43074,W,2,12,0.50,2232.4,M,-7.6,M,,0131*70
2025-10-10T21:27:34.301Z 142.202.48.16 0001 $GNGGA,212734.00,1931.28296,N,09901.43075,W,2,12,0.50,2232.4,M,-7.6,M,,0131*77
2025-10-10T21:27:35.274Z 142.202.48.16 0001 $GNGGA,212735.00,1931.28295,N,09901.43076,W,2,12,0.50,2232.5,M,-7.6,M,,0131*77
2025-10-10T21:27:36.331Z 142.202.48.16 0001 $GNGGA,212736.00,1931.28294,N,09901.43078,W,2,12,0.50,2232.5,M,-7.6,M,,0131*7B
2025-10-10T21:27:37.273Z 142.202.48.16 0001 $GNGGA,212737.00,1931.28292,N,09901.43081,W,2,12,0.50,2232.6,M,-7.6,M,,0131*79
2025-10-10T21:27:38.288Z 142.202.48.16 0001 $GNGGA,212738.00,1931.28292,N,09901.43082,W,2,12,0.50,2232.6,M,-7.6,M,,0131*75
2025-10-10T21:27:39.262Z 142.202.48.16 0001 $GNGGA,212739.00,1931.28291,N,09901.43083,W,2,12,0.50,2232.6,M,-7.6,M,,0131*76
2025-10-10T21:27:40.294Z 142.202.48.16 0001 $GNGGA,212740.00,1931.28291,N,09901.43084,W,2,12,0.50,2232.6,M,-7.6,M,,0131*7F
2025-10-10T21:27:41.265Z 142.202.48.16 0001 $GNGGA,212741.00,1931.28290,N,09901.43085,W,2,12,0.50,2232.7,M,-7.6,M,,0131*7F
2025-10-10T21:27:43.277Z 142.202.48.16 0001 $GNGGA,212743.00,1931.28288,N,09901.43087,W,2,12,0.50,2232.8,M,-7.6,M,,0131*79
